name,longitude,latitude
Letlhakane Primary Hospital,25.584111,-21.420833
Life Gaborone Private Hospital,25.933667,-24.629194
LenMed Health Bokamoso Private Hospital,25.839833,-24.580222
Sidilega Private Hospital,25.900695,-24.620222
Supra Sight Hospital,,
Francistown Academic Hospital,27.493472,-21.234611
Gweta Primary Hospital,25.254111,-20.211167
Tutume Primary Hospital,27.0455,-20.489778
Bobonong Primary Hospital,28.413945,-21.981722
Mmadinare Primary Hospital,27.75138,-21.88106
Spec-Savers Gaborone,25.878068,-24.685981
Donga Diabetics Clinic,27.519472,-21.174694
Bokaa clinic,25.541525,-24.401341
Sbrana Mental Hospital,25.678361,-25.199056
Kanye Seventh-Day Adventist Hospital,25.328163,-25.004503
Orapa Hospital,25.365611,-21.332083
Rakops Primary Hospital,24.3995,-21.03
Sefhare Primary Hospital,27.515639,-23.02325
Hukuntsi Hospital,21.796195,-23.9985
Thamaga Primary Hospital,25.534806,-24.666944
Selibe Phikwe Government Hospital,27.833361,-21.972556
Doctors Inn,23.424722,-19.986806
Maun Private Hospital,23.448722,-19.9675
Prime Health Medical Center,25.925444,-24.604472
"Gumare Primary Hospital, and",22.162889,-19.369528
Debswana Jwaneng Mine Hospital,24.730805,-24.595805
Kanye Seventh-day Adventist Hospital,25.341917,-24.972722
Kasane Primary Hospital,25.150111,-17.80025
Gantsi Primary Hospital,21.632694,-21.709333
Hukuntsi Primary Hospital,21.796195,-23.9985
Tsabong Primary Hospital,22.399361,-26.023889
Bontleng Clinic,27.830972,-21.98025
Block 6 Clinic,25.889333,-24.623167
Otse Clinic,25.74832,-25.030745
Botswana Ash Clinic,26.073972,-20.533194
Compass Green Day Hospital,25.919361,-24.653833
Delta Medical Centre,23.417639,-19.998917
Life Care Family Hospital,21.648194,-21.696111
Mediright Medical Centre,25.885028,-24.610333
Riverside Hospital,27.512556,-21.163111
Glen Valley BDF,,
Thebephatshwa Airbase Hospital,25.332194,-24.245194
Moshupa Private Clinic,25.414111,-24.776278
Mabuo Health Post,26.359054,-22.625758
Mogorosi Health Post,26.565762,-22.436723
Tshimoyapula Health Post,26.929163,-22.118597
Mahalapye Hospital,26.8,-23.1
Boipelego Clinic,,
Russel May Clinic,,
Ramokgwebana Clinic,27.649361,-20.591083
Selebi Phikwe Hospital,27.833361,-21.972556
Sesung Health Post,24.917656,-24.100016
Thabala Clinic,,
Lotlhakane West Health Post,,
Motokwe Clinic,23.299851,-24.049964
Inalegolo Health Post,22.894924,-24.254857
Mandunyane Health Post,,
Damuchujenaa Health Post,,
Tshokwe Health Post,,
Thamaga Clinic,,
Manyana Clinic,25.592564,-24.774905
Mapoka Clinic,27.416667,-20.666667
Mhalapitsa Health Post,27.232956,-22.794005
Tamasane Health Post,27.399968,-22.418374
Tamasane Health Post,27.399968,-22.418374
Magokotswane Health Post,25.495374,-24.406139
Seherelela Health Post,,
Dikwididi Health Post,26.219188,-24.596555
Ramotlabaki Health Post,,
Kgomokasitwa Health Post,25.629183,-25.092326
Tewane Health Post,26.903235,-22.852035
Tapologong Clinic,27.510636,-21.183295
Malolwane Clinic,26.472158,-24.548892
Kgomodiatshaba Health Post,,
Leshibitse Health Post,26.463603,-23.832317
Khurutshe Health Post,26.181992,-23.734291
Pilane Health Post,,
Malotwana Health Post,,
Oliphants Drift Clinic,26.849654,-24.180131
Modipane Health Post,26.122805,-24.619988
Rasesa Health Post,26.077017,-24.374904
Dikgonnye Health Post,26.006118,-24.140072
Ramonaka Health Post,26.465319,-24.57907
Morwa Clinic,25.984694,-24.556861
Oodi Clinic,26.152306,-24.376778
Matlhako Health Post,27.309009,-22.720769
Eretsha Health Post,22.687244,-18.78041
Mabolwe Health Post,28.838221,-21.82312
New Shoshong/ (Sheleketla Clinic,,
Mokgoro Clinic,,
Ramakgwebana Clinic,27.649361,-20.591083
Tshesebe Clinic,27.582559,-20.721618
Mupane Gold Mine Clinic,25.923111,-24.628194
Taupye Health Post,,
Air Strip Clinic,,
Mathubudukwane Clinic,26.435455,-24.610146
Mowana Health Post,27.599678,-20.752325
Ngwapa Health Post,27.748745,-23.00595
Palla Road Health Post,,
Poloka Health Post,,
Shakwe Health Post,,
Dovedale Health Post,,
Mokoswane Health Post,,
Mokobeng Health Post,27.668093,-22.996073
Moshopha Health Post,27.375164,-22.950479
Mosolotshane Health Post,26.379022,-22.936955
Makwate Health Post,27.277559,-23.302053
Madiba Health Post,26.821325,-23.07943
Mmutlane Health Post,,
Mmaphashalala Health Post,26.82328,-23.647415
Maape Health Post,,
Kudumatse Health Post,27.142231,-23.40793
Mokgenene Health Post,26.024655,-23.540873
Dibete Health Post,26.470766,-23.748058
Ikongwe Health Post,26.422721,-23.135494
Moralane Health Post,,
Ramokgonami Clinic,27.423949,-22.864192
Goodhope Primary Hospital,25.44475,-25.470167
Main Mall Optical,,
Vision Care Optimetrist,25.669611,-25.225583
JUST EYES OPTOMETRISTS,,
Opti-lab (pty Ltd,,
Bonwapitse Health Post,26.703337,-23.077619
Pilikwe Clinic,27.23,-22.78
Mookane Clinic,26.660341,-23.689497
Machaneng Clinic,27.488333,-23.189167
Xhosa Clinic,26.832472,-23.1325
Werda Clinic,21.78,-23.998889
Gumare Clinic,22.161853,-19.369068
Shakawe Clinic,21.84632,-18.36122
Matsitama Health Post,,
Matobo Health post,,
Changate Health Post,27.229267,-20.324917
Maposa Health Post,,
Goshwe Health Post,,
Manxotae Health Post,,
Vision Optical Centre,25.922075,-24.665987
Eye Express Riverwalk,25.935222,-24.676611
Eye Express Airport Junction mall,25.927,-24.604667
Mosetse Health Post,26.650972,-20.650507
Magapatona Health Post,,
Sepako Health Post,26.493864,-19.865538
Marobela Health Post,27.229753,-20.86841
Nshakashokwe Health Post,,
Selolwane Helath Post,27.00726,-20.47579
Nswazwi Clinic,27.227127,-20.658354
Dagwi Health Post,,
Sowa Township Clinic,26.224403,-20.563502
Gweta Clinic,25.246806,-20.203917
Tsokotshaa Health Post,,
Shorobe Clinic,23.673552,-19.766792
Botswana Defence Force Clinic,23.418389,-19.994167
EYE EXPRESS MAUN,,
BOTSVISION-MOLEPS,25.502417,-24.407
JWANENG EYE CARE,,
Disaneng Clinic,23.463,-19.986972
Mabeleapudi Clinic,26.832629,-22.219054
Avenue Medical Centre,,
Satau Health Post,24.405932,-18.012656
Kavimba Health Post,24.585263,-18.07213
Mabele Health Post,24.6465,-17.98708
Lesoma Health Post,25.22436,-17.90315
Kazungula Health Post,25.2373,-17.80335
Parakarungu Health Post,24.324572,-18.03535
Pandamatenga Clinic,25.66005,-18.53594
Seronga Clinic,22.414504,-18.812268
Nxamasere Health Post,,
Etsha 6 Clinic,22.315889,-19.015722
Sepopa Clinic,22.17752,-18.73373
Beetsha Clinic,22.738645,-18.723145
Etsha 1 Health Post,,
Gunutsoga Health Post,,
Mogotho Health post,,
Habu Health post,,
Nxaunxau Health post,,
Tubu Health Post,,
Ngarange Health Post,22.005114,-18.396
Kalamare Clinic,26.570057,-22.934162
Sekondomboro Health Post,21.959701,-18.352019
Xakao Clinic,21.890861,-18.312797
Etsha 13 Clinic,22.293544,-19.12701
Qangwa Clinic,21.175396,-19.527505
Xaxa Health Post,21.080646,-19.882879
Omaweneno Helth Post,22.568905,-25.761502
Bokspits Clinic,20.70035,-26.88869
Rappels Pan Health Post,20.814676,-26.821947
Khawa Health Post,,
Maleshe Health Post,,
Maralaleng Health Post,22.685205,-25.793884
Maubelo Health Post,22.377464,-26.076921
Mambo Health Post,27.32822,-20.79838
Khonkhwa Health Post,23.858806,-24.55973
Charleshill Clinic,20.09265,-22.27636
Kediretswe Clinic,27.10215,-22.54319
Sorilatholo Health Post,24.965163,-23.636964
Kaudwane Health Post,24.656662,-23.384035
Malwelwe Health Post,25.24958,-23.98655
Diphuduhudu Health Post,25.927679,-24.642039
Salajwe Clinic,24.71756,-23.69716
Malaka Health Post,27.329241,-22.615168
Topisi Health Post,27.251954,-22.180296
Mogome Health Post,26.899926,-22.784659
Lecheng Clinic,27.133333,-22.55
Radisele Clinic,,
Tawana Clinic,25.58779,-21.41535
Lerala Clinic,27.76275,-22.792306
Maunatlala Clinic,27.629472,-22.590556
Makoboxane Health Post,24.950288,-21.264357
Toromoja Health Post,24.570598,-21.067224
Mokubilo Health Post,,
Xere Health Post,,
Damtshaa Clinic,,
De Beers DK1 Clinic,25.914085,-24.585523
Ukhwi Health Post,,
Mmatshumo Clinic,25.659963,-21.145513
Khumaga Health Post,24.510463,-20.470839
Mmadikola Health Post,24.481244,-21.091182
Rakops Health Post,24.41338,-21.01887
Khwee Health Post,25.446352,-21.945313
Moreomaoto Health Post,24.254118,-20.238429
Mosu Health Post,,
Hukuntsi Clinic,21.796195,-23.998445
Matlapana Health Post,,
Lehututu Health Post,21.834389,-23.916825
Scottish Livingston Hospital,25.486806,-24.412083
Princess Marina Hospital,25.923917,-24.656889
Nyangabwe Referral Hospital,27.519472,-21.174722
Ghanzi Primary Hospital,21.632694,-21.709333
Jubilee Hospital,27.509722,-21.157833
Lotsane Clinic,27.1127,-22.554638
Tonota Clinic,27.461278,-21.460305
Tochi Medical Centre,25.680583,-25.207611
The Health-Haven Medical Centre,25.672333,-25.229583
"Peace Medical Centre, Botswana",25.6705,-25.227055
LB Private Healthcare,25.680583,-25.207611
Integral Medical Centre,25.669778,-25.227
George's Specialist Medical Clinic,25.877583,-24.680194
Mmatseta Health Post,25.863035,-24.512571
Peleng Central Clinic,25.677532,-25.228731
Peleng East Clinic,25.68692,-25.23142
Chiropractic Wellness Clinic,25.928739,-24.653189
Motswedi Clinic,25.68196,-25.21006
Woodhall Clinic,25.689667,-25.203278
Tsopeng Clinic,25.69592,-25.20033
DELGABO SPINAL HEALTH CLINIC,,
Digawana Clinic Post,25.56238,-25.34528
Molapowabojang Clinic,25.556539,-25.201234
Mogojogojwe Health Post,,
Botshelo Clinic,25.905222,-24.646722
Botsalano Clinic,27.500147,-21.178217
CYLDEVIW DENTAL CLINIC,,
NATURAL DENT DENTAL CLINIC,,
CONFIDENTIST DENTAL SURGERY,,
DOMINA DENTAL CILINIC,25.926573,-24.634186
HEALTHY SMILE,,
BOIPELO DENTAL CLINIC,27.513296,-21.172898
HOLISTIC DENTAL CARE,,
KEWAGAMANG DENTAL CLINIC,25.931314,-24.643899
SMILE TIME DENTAL CARE,25.884785,-24.643421
MIDDLESTAR DENTAL,25.921314,-24.642831
Botswelelo Clinic,27.521115,-21.17843
ONE DENTAL CLINIC,25.914434,-24.66394
Lapologang Clinic,27.51058,-21.18331
Tati Town Clinic,27.496764,-21.165984
PRODENT DENTAL,25.920894,-24.677002
Masego Clinic,27.522375,-21.202178
Itekeng Area W Health Clinic,27.503047,-21.174073
Gerald Estates Clinic,27.49892,-21.16703
Ntshe Clinic,27.498611,-21.134747
Mater Spei College Clinic,27.506123,-21.169229
Matsiloje Clinic,27.885333,-21.295944
Matshelagabedi Clinic,27.65987,-21.118901
Prohealth dental centre,25.942858,-24.668392
Tati Siding Clinic,27.472868,-21.281519
smiles for miles dental practice,25.919849,-24.642688
Serule Clinic,27.301805,-21.919028
Tonota College of Education Clinic,27.463139,-21.459859
Mathangwane Clinic,27.333254,-21.00011
Area L Health Post,27.516848,-21.160699
Ditladi Health Post,27.54468,-21.46258
Shashe Station Health Post,27.447049,-21.430436
Manyanda Health Post,27.457192,-21.441092
FUN DENTAL,24.728755,-24.601508
TOTAL DENTAL CARE,,
OOK DENTAL,26.830248,-23.107809
Enchanted Smiles Dental Clinic,,
Dentwise Surgery,25.494956,-24.396554
Madisakwane Health Post,27.476102,-21.440373
Mabesekwa Health Post,,
Borolong Health Post,27.336272,-21.103575
Natale Health Post,27.22959,-21.100537
Chadibe/Tlhalogang Health Post,27.350372,-21.055141
Shashe Mooke Health Post,27.378402,-21.187754
Gojwane Health Post,27.282515,-21.780973
Makobo Health Post,,
Shashe Bridge Health Post,27.451222,-21.370591
Mogobane Clinic,25.697278,-24.985444
Siga Clinic,25.87073,-24.88541
Maun Secondary School Clinic,23.429452,-20.006094
Sehitwa Clinic,22.696972,-20.482099
Boyei Clinic,23.418265,-19.983925
Makalamabedi Clinic,23.888535,-20.318099
Boseja Clinic,,
Tsau Clinic,22.455972,-20.168611
Sedie Clinic,23.45357,-19.96191
Bothatogo Health Post,22.746627,-20.550276
Chanoga Health Post,23.657361,-20.154861
Mababe Health Post,23.996573,-19.179875
Semboyo Health Post,,
Toteng Health Post,27.279062,-20.895606
Komana Health Post,23.224698,-20.194387
Makakung Health Post,22.333611,-20.381863
Sankoyo Health Post,23.874569,-19.428187
Boseja Kubung Health Post,23.427138,-20.026645
Thitoyamokodi Health Post,23.413624,-19.998499
Disana Health Post,23.430284,-20.012015
Thamalakane Health Post,23.423715,-19.99319
Masunga Clinic,27.455639,-20.903056
Tsamaya Clinic,27.627298,-20.836751
Sekakangwe Clinic,27.318539,-20.537179
Themashanga Clinic,27.551427,-20.800412
Nlapkhwane Clinic,,
Gambule Health Post,,
Gulubane Health Post,27.308725,-20.920111
Jackalas 1 Health Post,27.700818,-20.571981
Jackalas 2 Health Post,27.680978,-20.953912
Kalakamati Health Post,,
Mbalambi Health Post,27.378139,-20.493521
Mosojane Health Post,,
Matenge Health Post,27.263409,-20.852576
Sechele Health Post,27.356117,-20.758619
Matopi Health Post,27.937443,-21.483969
Senyawe Health Post,,
Siviya Health Post,27.674392,-20.856143
Masukwane Health Post,27.549586,-20.591567
Mabudzane Health Post,27.629637,-20.910863
Zwenshambe Health Post,27.435978,-20.505573
Botalaote Toteng Health Post,27.279091,-20.895592
Letsholathebe Health Post,27.438821,-20.681983
Masingwaneng Health Post,27.321927,-20.849908
Metlobo Clinic,25.113865,-25.422297
Mmathethe Clinic,25.272306,-25.321314
Phitshane Molopo Clinic,25.100938,-25.735533
Pitsane Clinic,25.596083,-25.473139
KANYE DENTAL SERVICES,25.33475,-24.978603
Clydeview Dental Clinic,27.085196,-22.564506
LEFKARA DENTAL SPA,,
ELITE DENTAL CLINIC,27.087782,-22.534004
HOPE FEYA DENTAL CLINIC,27.105815,-22.545477
AIDEN DENTAL CARE,26.753447,-22.425011
KAGISO DENTAL CLINIC,27.091355,-22.541411
Cwaanyaneng Health Post,25.317953,-25.5343
RIVER SIDE DENTAL CARE,25.943673,-24.679186
Ditlharapa Health Post,25.341021,-25.748963
Gathwane Health Post,25.499683,-25.39131
Kanngwe Health Post,,
Kgoro Health Post,,
Leporung Health Post,24.965301,-25.757558
Mmakgori Health Post,24.801053,-25.811436
Mokatako Health Post,25.220585,-25.754781
Mokgomane Health Post,25.239166,-25.557714
Motsentshe Health Post,,
Papatlo Health Post,25.502995,-25.647065
"DR DIFELA EAR,NOSE AND THROAT",,
ENT CARE,,
NETSCAPE PTY LTD-ENT,,
BOTS DENTAL,,
ENDOCRINE AND DIABETES CARES,,
BONATLA WELLNESS SOLUTIONS,25.898363,-24.658921
Rakhuna Health Post,25.581497,-25.559976
Sedibeng Health Post,25.139201,-25.640804
Majaalela Health Post,,
Sekhutlane Health Post,24.532187,-25.606328
BOPHELONG MEDICAL CLINIC,,
SAVE LIFE MEDICAL CENTRE,,
DEEN HEALTH CENTRE,,
Tlhareseleele Health Post,,
Phihetswane Health Post,25.401399,-25.655228
Phitshane Potlokwe Health Post,25.546109,-25.550711
Sheep Farm Health Post,25.587966,-25.552972
Metlojane Health Post,25.367883,-25.532293
Lejwana Health Post,,
Mathathane Clinic,28.75,-22.268
Francistown Prisons Clinic,,
Botshelo Consultation Clinic,,
Botshelo Medical Centre,25.905222,-24.646722
Dr MALLYA,27.510028,-21.162694
Jepro Clinic,27.335195,-20.997722
Jubilee Clinic in Botswana,27.50025,-21.171139
Avicenna Gynae Clinic,25.921278,-24.642861
Sefhophe Clinic,27.970692,-22.181544
Borotsi Clinic,28.41104,-21.9616
Semolale Clinic,28.828336,-21.873448
Tsetsebjwe Clinic,28.399,-22.421444
Manga Clinic,27.751389,-21.881056
Lentswelemoriti Health Post,29.033889,-22.208611
Robelela Health Post,27.984641,-21.590077
Molalatau Health Post,28.60132,-22.06672
Moletemane Health Post,28.24219,-22.51262
Tobane Health Post,28.042134,-21.90683
Motlhabaneng Health Post,,
Borakalalo Clinic,25.49438,-24.4086
Boribamo Clinic,25.5194,-24.3801
Kopong Clinic,25.892451,-24.468589
Lephephe Clinic,25.85398,-23.357563
Molepolole Council Clinic,25.513333,-24.401389
Molepolole Prison Clinic,25.477778,-24.389167
Ikago Clinic,25.342583,-24.97775
Mmamokhasi Clinic,,
Palmes Clinic,25.343028,-24.988056
Maitengwe Clinic,27.21,-20.128889
Nata Clinic,26.180556,-20.210556
DESTINY MEDICAL CENTRE,,
Mmankgodi Clinic,25.649876,-24.726032
DR KIRIGITIS PRIVATE CLINIC,,
Phuthadikobo Clinic,25.544717,-24.377037
Sojwe Clinic,25.747034,-23.436916
DR JOHN B.AYO PRIVATE PRACTICE,,
DR H.M KHAN PRIVATE PRACTICE,25.915875,-24.665169
SARAI HOLISTIC CARE,27.52142,-21.169693
ACACIA MEDICARE CLINIC,25.915783,-24.629252
Dukwi Clinic,26.534111,-20.592028
Bridge Women's Clinic in Botswana,25.839833,-24.580222
EUCALYPTUS MEDICAL CENTRE,,
Maun General Clinic,23.415583,-20.006917
ELIM MEDICAL CENTRE,,
Makaleng Clinic,27.26475,-20.795472
HOSPITAL WAY MEDICAL CENTRE,25.91532,-24.659441
LIFE LINE MEDICAL CLINIC,25.88448,-24.618092
METRO CLINIC,,
Extension 3 Clinic in Botswana,27.124222,-22.532278
Thebephatshwa Primary Hospital,,
Letlhakeng Clinic,25.583333,-21.416667
Kanye Main Clinic,25.340583,-24.983694
Tsabong Clinic,22.407892,-25.999693
Ao Broadhurst Clinic,25.936667,-24.626944
Mmadinare Medical Centre,27.751389,-21.881056
Shekina Medical Centre,27.751389,-21.881056
Drofhcran Medical Centre,25.585861,-21.409611
Hope Medical Clinic in Botswana,25.581667,-21.412972
Karibu Medical Centre,25.585861,-21.409611
La Vista Medical Centre,25.580389,-21.403083
KALAFONG MEDICAL CENTRE,,
ST DAIMAN MEDICAL CLINIC,-6.067281,-21.405984
BAGAETSHO MEDICAL CENTRE,25.380836,-23.430214
GODWILL MEDICAL CENTRE,,
Lorato Medical Centre,,
ENELE MEDICAL CLINIC,,
EB HEALTH CARE,,
Oodi Private Health Centre,,
Bethesda Medical Centre,,
DR MANU MEDICAL CENTRE,,
MASA MEDICAL CENTRE,,
Regina mundi Medical & Surgery,,
STAR POLYHEALTH CLINIC,25.863704,-24.62156
PALAPYE MEDICAL CENTRE,27.134022,-22.555997
TUMELO MEDICARE CENTRE,,
MOHAUNG MEDICAL CENTRE,,
Tati Side Medical Centre,27.478982,-21.276127
Multi- Care Medical Cilinic,39.688372,0.26867
Life Centre Clinic,25.875486,-24.87623
Phodisong Family Private Clinic,25.857401,-24.862758
St Josephs Private Medical Clinic,,
Mmabesi Medical Centre,,
Rapha Medical Centre,25.578861,-21.413083
St Damian Medical Clinic,25.573222,-21.405972
Central Medical Centre in Botswana,27.133333,-22.55
Concord Medical Practice in Botswana,27.114722,-22.5515
Dr Clement Private Clinic,27.131111,-22.556583
Dr Hirui Medical Clinic,27.114722,-22.5515
Dr Taljaard's Clinic,27.115,-22.548806
Mudili Medical Centre,25.885389,-24.643194
Holistic Physio & Fitness Clinic,27.08725,-22.539806
Gakgaltla Health Post,25.615354,-24.544932
Gakuto Health Post,25.78797,-24.4713
Gamodubu Health Post,25.701689,-24.501795
Hatsalatladi Health Post,25.592206,-24.138327
Kgope Health Post,25.913753,-24.308815
Lesilakgokong Health Post,25.372787,-24.554161
Mahetwe Health Post,25.676535,-24.239575
Medie Health Post,,
Ditshukudu Health Post,,
Kweneng Health Post,25.956801,-23.898882
Mmanoko Health Post,,
Rungwana Health Post,,
Kgwatlheng Clinic,25.32076,-24.97638
Mahikana Clinic,25.356475,-24.995905
Spectrum Medical Imaging Services,27.114722,-22.5515
The Medics Centre in Botswana,27.089889,-22.533778
Toro Clinic in Botswana,27.081583,-22.560528
Dr Monga Clinic,26.714278,-22.403694
Bidii Medical Services,27.4615,-21.443305
Graciel Clinic,27.441167,-21.426667
Proland Medical Centre,26.177305,-20.210528
St Josephs Private Mediclinic,27.449167,-21.421639
Thembo Yetu Clinic,27.215222,-20.827611
Victoria Medical Centre in Botswana,27.343972,-21.095833
Boikhutso Complex Clinic,28.42775,-21.970667
Buta Medical Centre,26.832139,-23.107806
Neurology&Headache Specialist Centre,,
Specialist Neurosurgeon,,
Honey drive holdings,,
Dr Mayet's Surgery (Mayet M A,26.832139,-23.107806
Enele Medical Centre,25.669778,-25.227028
Flowertown Medical Centre,26.845,-23.095944
Mahalapye Physiotherapy Sports Injury Clinic,26.832111,-23.107806
Sowa Pan Clinic,26.177305,-20.562889
Tati River Medical Clinic,26.221972,-20.563806
AO Mochudi Clinic,26.164694,-24.406694
Botsogo Medical Centre,26.14775,-24.3995
Got-Mola General Medical Clinic,26.152306,-24.376778
Joubert Medeical Centre,26.14775,-24.3995
Lotlhakane East Clinic,25.458915,-25.085257
Dipotsana Health Post,,
Diabo Health Post,25.365078,-25.199356
Segwagwa Health Post,25.174285,-25.19099
Lorolwana Health Post,24.480152,-25.320997
Gasita Health Post,,
Selokolela Health Post,25.110489,-24.948897
Gantsi Clinic,21.646482,-21.70195
Liberty Medical Centre,25.748639,-25.032417
Batho Dental Clinic,27.088,-22.542722
Dami Dentomed Clinic,27.840611,-21.975445
Family Dental in Botswana,27.114695,-22.5515
Dr Moje Dental Clinic,25.877028,-24.681139
Prestige Dental Clinic,25.91575,-24.658278
New Xade Clinic,22.417359,-22.12279
Bere Health Post,,
D'Kar Health Post,,
Kacgae Health Post,,
West Hanahai Health Post,21.772876,-22.10264
Alpha Dental Services,25.923083,-24.66325
East Hanahai Health Post,,
Grootlaagte Health Post,21.211228,-21.360304
Crown Dental Clinic in Botswana,25.928917,-24.660694
J O A (Dr O De Moon in Botswana,25.923083,-24.66325
Qabo Health Post,,
Cwagare Health Post,,
Proximo (The Dental Hub,25.923083,-24.66325
Agape Dental Clinic (Dr K Mabaila,25.918778,-24.653056
BPM Oral & Dental Care Clinic,25.920583,-24.641667
Bright Smile Dental Care,25.920639,-24.654389
Dentaljoy Dental Clinic,25.914944,-24.664472
Goapele Dental Clinic,25.928278,-24.669389
Boswelakoko/Borakalalo New Clinic,25.482192,-24.39233
Joosub Dada Clinic,25.327205,-24.956786
Dilolwe Health Post,,
Moshaneng Health Post,25.236525,-24.907194
Kgatleng Medical Centre,26.147861,-24.399444
KT Health Care Centre,26.119833,-24.401444
Notwane Medical & Surgical Clinic (Mahbub G,26.152306,-24.376778
Physio-Link Clinic,26.14775,-24.3995
Ultra Care Clinic - Mochudi,26.106833,-24.406694
Acacia Healthcare Clinic,25.543417,-24.673278
Always Open Clinic (AO - Molepolole,25.525028,-24.404278
Care & Hope Medical Clinic,25.532611,-24.666389
Dr Kabongo Clinic,25.497056,-24.396583
Glory Medical Services in Botswana,25.497056,-24.396583
Medron Medical Centre,25.549278,-24.398194
The Orthodontic Centre in Boswana,25.90875,-24.654111
The Prosthodontic Centre in Botswana,25.918278,-24.667417
Bagetsho Medical Centre,24.729194,-24.598111
Council Department Clinic,25.342583,-24.97775
Dr Joosub Adaa Clinic,25.342583,-24.97775
Mabutsane Clinic,23.576111,-24.389306
Ranaka Clinic,24.714306,-24.823389
Tshokwe Clinic,27.751389,-21.881056
Highway Medical Centre in Boswana,27.4615,-21.443305
HONEY RIVER HOLDINGS,,
The Maternity Care Clinic,,
ANCORA WOMEN' S CLINIC,,
DR BARON B. MATONHODZE,,
REPRODUCTIVE HEALTH SERVICES & FAMILY HEALTH CLINIC,,
ABEBE FEMALE HEALTH CLINIC,,
Sight Care Centre,,
BROADVISION EYE CLINIC,27.531533,-21.185238
Ever Dynamic Optometrists,25.90505,-24.662333
Vision Clarity,25.925604,-24.660548
Vision Clarity,25.925606,-24.660542
S & S Opticians,25.342297,-24.981001
Moleps Private Clinic,25.573472,-24.3965
Moulick's Family Care,25.573472,-24.3965
PolyMed Clinic,25.575083,-24.395583
EYE CARE,25.863418,-24.61268
NOLVIN CHILDREN'S CLINIC,,
Zoroga Health Post,25.796228,-20.157472
THULI PHARMACY,,
Mabale Health Post,,
Living Water pharmacy,27.507165,-21.163255
CLINICARE PHARMACY,25.884706,-24.643464
KGALAGADI PHARMACY,25.915676,-24.631013
Vaalhoek Health Post,20.70893,-26.867379
MIDDLE STAR PHARMACY,25.920573,-24.641966
MODERN PHARMACY,,
T & T PHARMACY,,
VITA LIFE PHARMACY,,
SQUARE PHARMACY,25.500702,-24.408213
PHARMA ZONE,25.975657,-24.56401
RAMOTSWA PHARMACY,,
BOSELE PHARMACY,26.712383,-22.403734
ALL RIGHT PHARMACY,27.843151,-21.975291
NHABE PHARMACY,,
Khurumela Clinic,,
Gootau Health Post,27.422287,-22.726762
Majwaneng Health Post,,
Diloro Health Post,,
Moremi Health Post,27.450547,-22.57224
Gaborone Medical Centre,25.925188,-24.661508
MED-LINK,,
E&P MEDICAL CENTRE,25.358773,-24.616849
Jireh Physiotherapy Clinic,,
ACTIVE PHYSIO,,
BBT PHYSIOTHERAPY,,
POLY HEALTH SERVICES in Botswana,,
St Simon Medical Centre,25.497056,-24.396583
Universal Family Clinic in Botswana,25.497056,-24.396583
Vitality Clinic in Botswana,25.502472,-24.406972
Bookelo Medical Clinic,27.472472,-21.197444
Boro Medical Centre,27.327945,-21.105806
DELTA PHYSIOTHERAPY,25.921791,-24.652076
ENERGISE PHYSIOTHERAPY CLINIC,25.923873,-24.659277
MASA PHYSIO,25.897478,-24.605343
PHODISONG PHYSIO,,
Physiotherapy Touch Clinic,,
ULTIMATE PHYSIOTHERAPY CLINIC,,
URBAN LIFESTYLE PHYSIOTHERAPY,25.903267,-24.648
Botselo Consultation Clinic,27.509694,-21.166972
Chilani Care Clinic,27.511333,-21.168
City Medical Centre (Ladu R T,27.512195,-21.195278
Consolata Medical Centre,27.509694,-21.166972
Dati Paediatric Clinic (Dr Loeto Mazhani,27.515278,-21.168306
Goosekgweng Health Post,27.3912,-22.726266
Ditalala Clinic,27.518028,-21.17025
Mokungwana Health Post,27.283993,-22.705584
Mokokwana/Mosweu Health Post,,
Mokgware Health Post,26.796192,-22.769895
Lesenepole(Matolwane Health Post,,
Moreomabele Health Post,27.271667,-22.051625
Matlhakola Health Post,27.30901,-22.720745
Ratholo Health Post,,
ACTIVE TOWN PHYSIOTHERAPY,,
PHYSIO CARES,,
RAMSAY PHYSIOTHERAPY & REHABILITATION CLINIC,,
ULTIMATE PHYSIOTHERAPY CLINIC,,
LIFECHARGE PHYSIO & REHAB,25.972972,-24.570031
Manaledi Health Post,,
Schatter & Namder (Lazane Kaplan Clinic,25.919509,-24.592598
SAFARI PHYSIO AND REHABILITATION,,
Ngware Clinic,25.368171,-23.865903
BOKAMOSO PRIVATE HOSPITAL,25.839212,-24.581705
Botlhapatlou Clinic,25.490745,-24.025145
Takatokwane Clinic,25.535139,-24.669472
Moshaweng Clinic,25.519083,-24.414167
Khudumelapye Clinic,24.948106,-23.913621
Ditshegwane Health Post,25.883379,-24.692991
MEDLASS IMAGING,25.911684,-24.670629
Dutlwe Health Post,,
VILLAGE IMAGING,25.942981,-24.668299
KEINEETSE SURGICAL SERVICES,25.922867,-24.637278
MASILO SURGICAL,,
ALEMU GENERAL SURGICAL SERVICES,,
KAPARA SURGICAL SPECIALIST CLINICS,25.837109,-24.581698
LABORDE'S MED SURGERY,25.837089,-24.5817
Kotolaname Health Post,,
SABELSY (PTY LTD,25.837169,-24.581748
Maboane Health Post,24.532009,-24.095842
Monwane Health Post,25.21442,-24.316514
SURGICAL GIT CARE CENTRE,25.837131,-24.581681
Metsibotlhoko Health Post,25.802999,-24.551526
Serinane Health Post,,
DAOU URO CARE,25.836963,-24.581593
UROLOGY CENTRE,25.836963,-24.581625
URO CARE CLINIC,25.900674,-24.620216
AIDEN DENTAL CARE,26.75147,-22.425012
THE COMPLEMENT COUNSELLORS,,
JULIA MOLEFHE CLINIC,25.871698,-24.661045
Extension 2 clinic,25.917186,-24.661265
Nkoyaphiri Clinic,25.854007,-24.610835
Gaborone West Clinic,25.886383,-24.660153
Broadhurst 3 Clinic,25.89876,-24.62877
Mafitlhakgosi Clinic,25.970933,-24.655495
Lesirane Clinic,25.824241,-24.647566
Old Naledi Clinic,25.896748,-24.689683
Area W Clinic,27.503124,-21.174096
Gerald Clinic,27.476453,-21.194764
Sesame Clinic,27.813966,-21.985935
Botshabelo Clinic,27.869503,-21.957828
Tapologo Clinic,27.852531,-21.981104
Family Wellness Clinic in Botswana,27.511889,-21.166445
Francistown Clinic in Botswana,27.511333,-21.168
Lordsland Medical Centre,27.514417,-21.172472
Masters Dental Clinic in Botswana,27.511167,-21.167806
Med-Lab Clinic Consult,27.516028,-21.165028
Pana Med Consultation Clinic,27.517694,-21.162694
Polani Specialist Health Services (Dr Habaudi Hobona,27.511361,-21.168056
Progressive Physiotherapy Clinic in Botswana,27.517306,-21.169556
Robby Memorial Clinic,27.50025,-21.171139
Boseja II Clinic,26.138425,-24.421497
Moshupa Clinic,25.415802,-24.777683
Mantshwabisi Health Post,,
Sese Clinic,24.805655,-24.655556
Karakubis Clinic,20.615682,-22.089863
Ditsweletse Clinic,24.726353,-24.610298
Makunda Health Post,,
Sebina Clinic,27.202945,-20.80975
New Xanagas/Tsawe Health Post,20.653494,-22.430753
Kang Clinic,58.493045,2.351079
Chobokwane Health Post,21.213739,-22.154994
Khakhea Clinic,25.497056,-24.396583
Airstrip Clinic,26.824441,-23.115377
Morwamusu Clinic,23.068973,-24.079518
Shoshong Clinic,26.516698,-23.033249
Kokong Clinic,23.119288,-24.344334
Keng Health Post,23.754903,-24.598527
Mopipi Clinic,24.890254,-21.208723
Kachikau Clinic,24.50035,-18.157239
Mahotshwane Health Post,24.223153,-24.417193
Mathethe Clinic,25.318413,-25.353268
Sekoma Health Post,23.92785,-24.515226
Moeti Clinic,,
Tshimologo Clinic,24.723569,-24.603179
EU7 Clinic,24.745017,-24.594557
Maokane Clinic,24.626962,-24.897982
Lefhoko Health Post,24.667688,-24.835745
Mokhomma Health Post,24.596352,-24.770334
Samane Health Post,,
Thankane Health Post,24.310819,-24.000674
Kgari Health Post,,
Mulambakwena Health Post,27.458844,-20.569211
Gungwe Health Post,27.380895,-20.489773
Kanye Family Medical Clinic (Mohammed B M,25.9155,-24.658083
Benedicte Medical Clinic,25.32575,-24.969917
Ferdousy Surgery,25.343222,-24.982389
Medikon Clinic,25.339889,-24.980167
Oristone Medical Clinic,25.343,-24.988111
Sam's Surgery (Dr S Y Amevuvor,27.53375,-21.171583
Bogogobo Health Post,21.995929,-26.642774
Ronald Mokgachane Physiotherapy Clinic,27.514305,-21.163611
Safe Anaesthesia Services Specialist Clinics,27.512889,-21.170472
Sante Dental Centre,27.508889,-21.164611
Sarai Holistic Care Medical Centre,27.521361,-21.169722
Satellite Private Medical Clinic,27.533139,-21.184944
Seyanyana Children's Clinic,27.512694,-21.162389
Thusong Surgery,27.512167,-21.168778
Tsholofelo Medical Clinic,27.50025,-21.171139
Angel Private Clinic,27.416667,-20.666667
Masunga Medical Services,27.455639,-20.903056
Joretti Medical Centre,22.154944,-19.35625
24hr Emergency Medical Care,25.240972,-17.806833
Chobe Medical Centre,25.155611,-17.7935
Middlepits Clinic,21.882384,-26.666434
Kolonkwaneng Health Post,21.996212,-26.643338
Gakhibane Health Post,21.768451,-26.712951
Kokotsha Health Post,23.222115,-24.919949
Broadhurst 1 Clinic,25.943793,-24.628401
Kasane Health Post,25.15364,-17.7992
Serowe Family Clinic,26.701611,-22.3875
Kadimo Samson Clinic,27.341525,-21.109517
Mmashoro Clinic,26.711,-22.389306
Moiyabana Clinic,26.404231,-22.635376
Maun Clinic,23.417172,-19.992065
Nkange Clinic,27.135,-20.29912
Kutamogore Health Post,,
Makopong Clinic,22.971162,-25.333563
Khisa Health Post,,
Motopi Clinic,23.418389,-19.994167
Boitekanelo/De Beers Orapa (Morale Clinic,25.915319,-24.658967
Xhumo Clinic,24.604783,-21.169929
Baitiredi Clinic,26.817327,-23.095214
Tlokweng Main Clinic,25.95731,-24.66725
Prime Health Medical (M R I,25.241083,-17.805444
Afya Mzuri Family Care,23.423806,-19.988694
Anej Family Medical Clinic,23.418083,-19.99525
Covenant Medical Centre,23.422917,-19.993333
Women's Health Centre in Botswana,23.422778,-19.988945
Glen Valley Clinic,25.959784,-24.589491
Gaborone City Council Clinic,25.916528,-24.658945
Nkaikela Health Post,25.975041,-24.672755
Julia Molefhe (Block 9 Clinic,25.871714,-24.661047
Phase 2 Clinic,25.90875,-24.654111
Block 8 Clinic (Kgatelopele,25.913793,-24.6065
Kgalagadi Breweries (Ltd Clinic,25.918011,-24.630694
Segwana Clinic,25.909477,-24.620779
Botswana Defence Force (Mogoditshane Hospital,25.804889,-24.936611
Moshupa SDA Clinic,25.417422,-24.790525
Ntlhantlhe Clinic,25.594434,-24.961849
Moshupa Council Clinic,25.41089,-24.764703
Moshupa Health Post,25.420392,-24.773783
Ralekgetho Health Post,25.052365,-24.832234
Lekgolobotlo Health Post,25.629397,-24.907343
Tshwaane Health Post,,
Seolwane Health Post,27.696094,-22.649468
Kgosing Clinic,25.540289,-24.678202
Molepolole College of Education Clinic,25.493008,-24.406589
Lekgwapheng Clinic,25.46956,-24.39881
Kumakwane Health Post,25.699183,-24.655016
Phuting Health Post,,
Shadishadi Health Post,25.66772,-23.477923
Mogapi Health Post,27.834686,-22.322879
UB (Main Campus Clinic,25.933515,-24.666809
Extension 14 Clinic,25.912167,-24.678236
First Care Pharmacy,27.087692,-22.542963
Medi-path Medical Laboratory,27.092365,-22.541019
Ikins Pharmacy,26.833214,-23.110242
Lordsland Medical Center,27.514386,-21.172446
Gabane Health Post,25.783611,-24.664063
Downtownlink Pharmacy,,
Hana Pharmacy,,
St Conrads Clinic,25.87171,-24.86681
Lesetlhana Clinic,25.856908,-24.855973
CHIDZANANI PHARMACY,27.510116,-21.16629
Metsimaswaane Health Post,25.75631,-24.80949
Serowe Pharmacy,26.70422,-22.387066
Ramotswa Station/Taung Clinic,25.67785,-24.978305
Lorwana Clinic,,
Wellness Pharmacy,26.744694,-22.422113
Lokgwabe Health Post,21.778845,-24.113264
Kgalagadi Pharmacy,,
Monong Health Post,21.512859,-23.661169
Global Health Pharmacy,25.931487,-24.643794
Tshane Health Post,21.867843,-24.027536
Phuduhudu Health Post,22.983886,-23.955044
Zutshwa Health Post,25.902204,-24.648119
Khekhenye Health Post,23.374194,-24.056943
Lentsweletau Clinic,25.851729,-24.253729
Magotlhwane Health Post,25.495365,-24.406138
Mogonye Health Post,25.705421,-24.82467
Thini clinic,26.99944,-20.50081
Paje Health Post,,
Majwanaadipitse Health Post,26.883269,-22.113904
Lepokole Health post,28.349109,-21.794993
Gobojango Health Post,,
Addis Mothers Clinic (AO,25.900583,-24.658667
Afia GP Clinic,25.783555,-24.664139
Aims Surgical Clinic,25.933583,-24.629417
Alemu General Surgical Clinic - Basotho Drive,25.900695,-24.620222
Notwane Pharmacy,25.91801,-24.658502
The Mall Pharmacy,,
Modest Pharmacy,25.916984,-24.664161
PHC Chemist,,
Tati River Laboratory,,
National Health Laboratory,25.925476,-24.659191
Diagnofirm Medical Laboratory,27.509446,-21.163861
"Diagnofirm Medical Laboratory, phikwe",27.860179,-21.961425
Medlass Diagnostics,25.91161,-24.67064
PATH VIEW LABORATORY,,
Northern Pathology Services Pty Ltd,27.512558,-21.161463
Diagnofirm Extension9 Depot,,
Maun Diagnofirm Laboratory,,
Kazungula Diagnofirm Laboratory,,
Diagnofirm Palapye,27.133654,-22.556009
Jwaneng Diagnofirm Depot,,
Tutume  PHARMACY,27.041385,-20.489403
Bosele Pharmacy- Conilious Manguma,,
KEEPWELL PHARMACY,26.70409,-22.387541
POLY CHEMIST,,
PHARMA CAPRIVI,,
MIDNIGHT PHARMACY,27.080741,-22.562086
RELIEF PHARMACY,27.089024,-22.541921
PIONEER PHARMACY,,
BREAKTHROUGH PHARMACY,,
MOSHUPA PULSE PHARMACY,,
NADO PHARMACY,,
MEDI-PERFECT PHARMACY,,
PULSE PHARMACY-MAUN,23.421381,-19.99244
OKAVANGO PHARMACY,23.425097,-19.988051
PRIME HEALTH PHARMACY-MAUN,23.425693,-19.987853
PORTSWAY PHARMACY,23.424668,-19.987728
THERAPEO'S PHARMACY,26.845174,-23.096778
IKIN'S PHARMACY,26.833197,-23.110267
TRI-PHARMA,26.832985,-23.112806
PHARMA AFRICA,25.150146,-17.800057
The Chemist plus Pharmacy,25.340793,-24.981572
OK CHEMIST-KANYE,,
PHAKALANE PHARMACY,25.986897,-24.551282
PHARMA HUB,25.974403,-24.569652
CHEM-MART PHARMACY,25.909657,-24.628429
FRIENDS PHARMACY,25.885742,-24.620315
ZETA CLINIC,25.905334,-24.647008
ZETA CLINIC,25.905334,-24.647008
Pharma Acacia Pharmacy,25.987157,-24.551542
INDEPENDENCE SURGERY,25.920782,-24.653098
INDEPENDENCE SURGERY,25.920782,-24.653098
FNF PHARMACY,25.88922,-24.661128
MOGODITSHANE PULSE PHARMACY,25.856879,-24.607493
RELAY PHARMACY,25.900261,-24.658826
Scottish Livingstone Hospital,25.48575,-24.41244
Botswana-Baylor Children's Clinical Center of Excellence,25.935561,-24.626709
Botswana-Baylor Children's Clinical Center of Excellence,25.935561,-24.626709
Princess Marina Hospital,25.912222,-24.658056
Nyangabgwe Referral Hospital,27.5125,-21.173611
Athlone District Hospital,25.666667,-25.216667
Deborah Retief Memorial Hospital,26.15,-24.416667
Sekgoma Memorial Hospital,26.759222,-22.423861
Selibi Phikwe Government Hospital,27.84,-21.975833
Mahalapye District Hospital,26.8,-23.1
Palapye Primary Hospital,27.133333,-22.55
Masunga Primary Hospital,27.416667,-20.666667
Letsholathebe II Memorial Hospital,23.416667,-19.983333
Good Hope Primary Hospital,25.439214,-25.467122
Bamalete Lutheran Hospital,25.666667,-25.216667
Seventh Day Adventist Hospital Botswana,25.35,-24.983333
Maun General Hospital,23.416667,-19.983333
Sbrana Psychiatric Hospital,25.666667,-25.216667
Bamalete Lutheran Hospital,25.8805,-24.873195
